{
  "type": "FeatureCollection",
  "features": [
    {
      "type": "Feature",
      "properties": {
        "name": "Jim Corbett National Park",
        "state": "Uttarakhand",
        "established": "1936"
      },
      "geometry": {
        "type": "Point",
        "coordinates": [78.774722, 29.5300]
      }
    },
    {
      "type": "Feature",
      "properties": {
        "name": "Kaziranga National Park",
        "state": "Assam",
        "established": "1905"
      },
      "geometry": {
        "type": "Point",
        "coordinates": [93.3638, 26.5775]
      }
    },
    {
      "type": "Feature",
      "properties": {
        "name": "Sundarbans National Park",
        "state": "West Bengal",
        "established": "1984"
      },
      "geometry": {
        "type": "Point",
        "coordinates": [88.6410, 21.9497]
      }
    },
    {
      "type": "Feature",
      "properties": {
        "name": "Gir National Park",
        "state": "Gujarat",
        "established": "1965"
      },
      "geometry": {
        "type": "Point",
        "coordinates": [70.8022, 21.1240]
      }
    },
    {
      "type": "Feature",
      "properties": {
        "name": "Ranthambore National Park",
        "state": "Rajasthan",
        "established": "1980"
      },
      "geometry": {
        "type": "Point",
        "coordinates": [76.5026, 26.0173]
      }
    },
    {
      "type": "Feature",
      "properties": {
        "name": "Periyar National Park",
        "state": "Kerala",
        "established": "1982"
      },
      "geometry": {
        "type": "Point",
        "coordinates": [77.1685, 9.4534]
      }
    },
    {
      "type": "Feature",
      "properties": {
        "name": "Bandhavgarh National Park",
        "state": "Madhya Pradesh",
        "established": "1968"
      },
      "geometry": {
        "type": "Point",
        "coordinates": [80.9480, 23.6860]
      }
    },
    {
      "type": "Feature",
      "properties": {
        "name": "Kanha National Park",
        "state": "Madhya Pradesh",
        "established": "1955"
      },
      "geometry": {
        "type": "Point",
        "coordinates": [80.6115, 22.3344]
      }
    },
    {
      "type": "Feature",
      "properties": {
        "name": "Sundarbans National Park",
        "state": "West Bengal",
        "established": "1984"
      },
      "geometry": {
        "type": "Point",
        "coordinates": [88.5667, 21.9497]
      }
    },
    {
      "type": "Feature",
      "properties": {
        "name": "Bandipur National Park",
        "state": "Karnataka",
        "established": "1974"
      },
      "geometry": {
        "type": "Point",
        "coordinates": [76.6625, 11.6542]
      }
    }
  ]
}
